{
  "cities": [
    {
      "id": "d366",
      "cityName": "Castello de la Plana",
      "country": "Spain",
      "emoji": "ðŸ‡ªðŸ‡¸",
      "date": "2024-07-17T12:31:58.289Z",
      "notes": "",
      "position": {
        "lat": "39.98463559722226",
        "lng": "-0.04325866699218751"
      }
    },
    {
      "cityName": "Castello de la Plana",
      "country": "Spain",
      "emoji": "ðŸ‡ªðŸ‡¸",
      "date": "2024-07-29T07:04:20.683Z",
      "notes": "",
      "position": {
        "lat": "40.000018084754124",
        "lng": "-0.04034042358398438"
      },
      "id": "cLxd3ya"
    },
    {
      "cityName": "La Trinite",
      "country": "France",
      "emoji": "ðŸ‡«ðŸ‡·",
      "date": "2024-07-29T07:04:27.614Z",
      "notes": "",
      "position": {
        "lat": "43.7401006503631",
        "lng": "7.338867187500001"
      },
      "id": "aEk2gGC"
    },
    {
      "cityName": "Hincesti",
      "country": "Moldova (the Republic of)",
      "emoji": "ðŸ‡²ðŸ‡©",
      "date": "2024-07-29T07:04:32.419Z",
      "notes": "",
      "position": {
        "lat": "46.864972953511774",
        "lng": "28.388671875000004"
      },
      "id": "a3PgDxz"
    },
    {
      "cityName": "Golog",
      "country": "China",
      "emoji": "ðŸ‡¨ðŸ‡³",
      "date": "2024-07-29T07:04:37.217Z",
      "notes": "",
      "position": {
        "lat": "33.45103840945027",
        "lng": "101.6015625"
      },
      "id": "aHZ-qBS"
    },
    {
      "cityName": "Bijolia",
      "country": "India",
      "emoji": "ðŸ‡®ðŸ‡³",
      "date": "2024-07-29T07:04:41.102Z",
      "notes": "",
      "position": {
        "lat": "25.145089211783045",
        "lng": "75.39248444902802"
      },
      "id": "j24y0EG"
    },
    {
      "cityName": "Singoli",
      "country": "India",
      "emoji": "ðŸ‡®ðŸ‡³",
      "date": "2024-07-29T09:11:53.206Z",
      "notes": "",
      "position": {
        "lat": "24.94718297303318",
        "lng": "74.83886718750001"
      },
      "id": "k4mT8DJ"
    }
  ]
}